City,Longitude,Latitude,Temperature,Wind Speed,Humidity,Cloudiness
Kutum,24.6667,14.2,82.78,12.82,11,36
Lebu,-73.65,-37.6167,52.18,8.01,68,73
Khatanga,102.5,71.9667,37.85,9.82,78,99
Ilhabela,-45.3581,-23.7781,79.74,4.88,64,79
Port Elizabeth,25.5701,-33.918,55.69,12.66,94,90
Kapustin Yar,45.7372,48.5831,68.5,4.65,68,19
Ushuaia,-68.3,-54.8,29.86,21.85,93,90
Uyuni,-66.825,-20.4597,46.22,8.55,23,100
Port Lincoln,135.8667,-34.7333,54.36,12.55,69,1
Ilulissat,-51.1,69.2167,59.02,17.27,23,49
Severo-Kuril'sk,156.125,50.6789,41.31,8.5,87,100
Javānrūd,46.5172,34.7961,62.51,3.62,23,0
Busselton,115.3333,-33.65,53.04,14.63,89,96
Hithadhoo,73.0833,-0.6,83.62,18.07,71,38
Bilma,12.9164,18.6853,92.7,6.58,7,45
Nikolskoye,30.7861,59.7035,49.89,4.52,73,2
Moree,149.85,-29.4667,44.62,8.05,70,100
Kavaratti,72.642,10.5669,83.39,16.17,76,87
Dikson,80.5464,73.5069,16.92,4.81,97,36
Yārāda,83.2667,17.65,80.92,6.29,83,40
Chapleau,-83.4034,47.8405,62.69,4.61,19,20
Kiryat Gat,34.7642,31.61,68.0,2.33,100,0
Port Alfred,26.891,-33.5906,59.7,17.11,79,99
Laguna,-121.4238,38.421,80.06,8.99,42,1
Qaanaaq,-69.3632,77.484,31.08,5.86,95,55
Puerto Ayora,-90.3518,-0.7393,75.54,8.99,86,52
Makakilo City,-158.0858,21.3469,79.75,11.5,58,1
Hobart,147.3294,-42.8794,45.09,1.99,78,75
Laas,10.7002,46.6166,58.14,6.11,90,6
Punta Arenas,-70.9167,-53.15,37.51,18.07,48,40
Philadelphia,-75.1638,39.9523,50.65,5.01,89,90
Nouadhibou,-17.0347,20.931,66.18,24.16,88,0
Atuona,-139.0333,-9.8,78.89,9.46,72,12
Kultuk,103.6956,51.7208,38.62,1.63,93,97
Eyl,49.8164,7.9803,79.63,19.42,78,58
Tuktoyaktuk,-133.0374,69.4541,30.2,6.91,74,90
Rikitea,-134.9692,-23.1203,77.13,20.42,85,94
New Norfolk,147.0587,-42.7826,42.17,3.47,76,33
Narsaq,-46.05,60.9167,46.62,5.66,83,100
Bairiki Village,172.9752,1.3292,84.2,13.8,79,75
Pitimbu,-34.8086,-7.4706,81.19,12.28,75,3
Sangar,127.4739,63.9242,50.22,8.81,60,99
Mazatlán,-106.4167,23.2167,84.9,4.0,77,40
Kapaa,-159.319,22.0752,80.73,3.0,68,20
Vila Velha,-40.2925,-20.3297,82.35,8.05,69,0
Province of Mantua,10.7833,45.1667,66.49,14.88,88,76
Thompson,-97.8558,55.7435,53.76,11.5,82,75
Krasnosel'kup,82.4667,65.7,37.17,10.8,55,10
Saskylakh,114.0833,71.9167,32.18,8.68,93,74
East London,27.9116,-33.0153,61.2,22.3,72,42
São Filipe,-24.4956,14.8961,73.71,14.12,77,8
Veinticinco de Mayo,-60.1727,-35.4323,46.38,6.82,61,14
Mataura,168.8643,-46.1927,49.48,4.32,95,100
Esperance,121.9,-33.8667,62.44,19.89,87,100
Mahébourg,57.7,-20.4081,75.49,2.3,94,40
Carnarvon,113.6333,-24.8667,59.07,8.05,94,40
George Town,100.3354,5.4112,81.32,5.99,87,20
Jalu,21.5482,29.0331,92.39,10.18,15,5
Alexandria,29.9553,31.2156,71.87,3.31,71,0
Kisarawe,39.0667,-6.9,69.6,4.72,94,20
Bluff,168.3333,-46.6,49.8,21.05,87,100
Babu,111.5167,24.4167,75.99,0.51,98,100
Deputatsky,139.9,69.3,46.53,17.96,50,28
Carutapera,-46.02,-1.195,76.89,6.53,92,28
Amarante do Maranhão,-46.7422,-5.5667,78.49,1.57,64,24
Padang,100.3543,-0.9492,77.54,2.51,76,100
Hofn,-15.2082,64.2539,45.93,18.84,87,100
Nantucket,-70.0995,41.2835,48.07,23.02,88,90
Yar-Sale,70.8333,66.8333,45.45,10.87,77,71
Kanniyākumāri,77.5667,8.0833,80.01,21.23,83,97
Pisco,-76.2167,-13.7,66.25,6.91,82,90
Butaritari,172.7902,3.0707,82.42,15.05,79,100
Guerrero Negro,-114.0611,27.9769,67.75,20.24,62,58
Leningradskiy,178.4167,69.3833,35.26,6.64,90,48
Cherskiy,161.3,68.75,54.16,13.82,39,15
Faanui,-151.75,-16.4833,79.72,6.29,68,24
Lityn,28.0809,49.3251,50.16,5.21,91,91
Tegul'det,88.1667,57.3064,31.91,3.27,68,39
Gushikawa,127.8686,26.3544,69.01,17.02,88,75
Nanortalik,-45.2371,60.1432,36.97,6.55,87,100
Hambantota,81.1185,6.1241,79.77,20.13,81,83
Hermanus,19.2345,-34.4187,51.8,5.55,80,51
Saint George,-113.5841,37.1041,91.58,1.99,11,1
Lüderitz,15.1594,-26.6481,60.3,14.76,67,39
Château-Thierry,3.4,49.05,55.22,8.1,87,97
Derzhavīnsk,66.3167,51.1,65.89,7.47,38,51
Pyskowice,18.6333,50.4,49.32,4.0,89,100
Saint Lawrence,14.204,36.0553,68.86,4.99,81,67
Antalaha,50.2788,-14.9003,72.25,5.84,81,31
Ankazoabo,44.5167,-22.2833,60.06,4.29,77,0
Yellowknife,-114.3525,62.456,53.26,1.99,37,40
Anadyr,177.4833,64.75,48.7,2.1,43,0
Albany,-73.9662,42.6001,49.41,5.37,74,100
Tasiilaq,-37.6368,65.6145,39.36,13.73,95,100
Hasaki,140.8333,35.7333,65.93,8.28,85,99
Bredasdorp,20.0403,-34.5322,54.72,3.74,88,14
Souillac,57.5167,-20.5167,75.58,7.09,94,40
Plérin,-2.7798,48.5425,56.3,1.01,82,0
Stornoway,-6.3865,58.2093,55.9,2.3,82,98
Upernavik,-56.1549,72.7868,31.62,17.27,92,100
San Luis,-66.3356,-33.295,55.67,3.2,47,75
Khao Yoi,99.8243,13.2403,82.98,3.91,83,100
Oktyabr'skoye,44.7417,43.0645,64.35,5.1,82,26
Castro,-50.0119,-24.7911,67.93,6.85,69,43
Rottenmann,14.35,47.5167,44.62,2.42,93,64
Dali,100.1833,25.7,65.19,4.92,79,75
Cape Town,18.4232,-33.9258,56.61,0.07,87,40
Clyde River,-68.5914,70.4692,32.23,5.75,74,20
Lavrentiya,-171.0,65.5833,32.99,8.34,80,6
Zhigansk,123.3711,66.7697,50.52,8.88,51,1
Tiksi,128.8694,71.6872,31.91,9.75,96,86
Chokurdakh,147.9167,70.6333,54.36,12.24,40,8
Portel,-50.8211,-1.9356,81.54,3.62,76,15
Bauchi,10.0,10.5,85.8,10.54,42,100
Lorengau,147.2712,-2.0226,81.97,12.71,80,55
Lata,-8.3327,40.1629,62.28,2.98,96,0
Alta Floresta,-56.0861,-9.8756,87.62,1.14,45,20
Fortuna,-124.1573,40.5982,59.11,4.0,76,75
La Paz,-68.15,-16.5,60.78,16.11,19,75
Along,94.7667,28.1667,72.93,0.81,98,94
Pontes e Lacerda,-59.3353,-15.2261,85.35,3.51,39,63
Torbay,-52.7314,47.6666,46.76,13.8,71,75
Faya,42.4509,18.3851,68.52,1.39,38,100
Huarmey,-78.1522,-10.0681,67.59,8.57,83,48
Surgut,73.4167,61.25,57.38,10.83,67,20
Omsukchan,155.8,62.5333,33.91,7.07,81,96
Hilo,-155.09,19.7297,78.55,10.36,73,20
Marinette,-87.6307,45.1,61.02,9.22,27,1
Ipu,-40.7108,-4.3222,81.43,2.33,62,93
Bemidji,-94.8803,47.4736,64.54,11.5,34,1
El Carmen,-73.4478,8.5106,72.32,1.32,90,100
Tazovsky,78.7,67.4667,39.76,18.39,58,99
Bethel,-73.414,41.3712,47.39,5.01,87,100
Linxia Chengguanzhen,103.2064,35.6003,55.87,5.35,47,18
Kichera,110.0997,55.9375,38.41,1.16,84,100
Sampang,113.2394,-7.1872,78.75,5.41,81,97
Marsá Maţrūḩ,27.2453,31.3525,70.09,3.96,74,0
Marrakesh,-8.0083,31.6315,80.67,3.44,47,40
Vaini,-175.2,-21.2,75.36,1.14,88,75
Ukiah,-123.2078,39.1502,81.0,5.75,33,1
Bariloche,-71.3082,-41.1456,42.55,10.71,61,40
Karabük,32.6277,41.2049,58.46,3.71,97,100
Katsuura,140.3,35.1333,65.86,7.23,86,98
Ponta do Sol,-17.1,32.6667,69.39,6.33,72,33
Coquimbo,-71.3436,-29.9533,60.53,8.01,82,0
Goderich,-81.7165,43.7501,57.36,17.27,51,9
Sinnamary,-52.95,5.3833,79.9,9.91,84,76
Kirakira,161.9205,-10.4544,76.73,5.01,92,100
Tessalit,1.0114,20.1986,97.34,9.46,6,100
Ladário,-57.6017,-19.0047,91.69,5.75,43,40
Pevek,170.3133,69.7008,42.19,11.97,54,0
Bambous Virieux,57.7575,-20.3428,75.45,5.46,94,40
Talnakh,88.3972,69.4865,26.15,3.33,98,96
Kapit,112.9333,2.0167,72.1,1.43,100,82
Nioro,-15.75,13.35,81.9,11.03,45,57
Hirara,125.2833,24.8,81.93,20.45,86,100
Tevaitoa,-151.5,-16.7833,79.77,8.46,69,47
Khandyga,135.6,62.6667,53.33,9.33,84,100
Luanda,13.2343,-8.8368,75.2,5.75,94,75
Salé,-6.8166,34.0389,67.73,4.61,88,100
Punta Cardon,-70.215,11.6581,82.06,29.51,65,100
Villazón,-65.5942,-22.0866,53.83,17.56,13,59
Wadern,6.8833,49.5333,55.8,5.66,82,6
Richards Bay,32.0377,-28.783,64.42,5.82,85,9
Te Anau,167.7167,-45.4167,46.44,7.09,95,100
Katangli,143.2326,51.7102,36.36,14.32,92,100
Gurupá,-51.64,-1.405,81.66,2.77,77,49
Taldan,124.8,53.6667,42.21,2.91,85,15
Cabo San Lucas,-109.9124,22.8909,87.17,8.05,48,20
Kandrian,149.55,-6.2167,78.37,11.16,87,88
Visnes,5.2242,59.3556,50.36,14.97,87,90
Pangnirtung,-65.7125,66.1451,32.09,5.01,84,19
Kaitangata,169.8464,-46.2817,49.24,10.92,93,100
Khedbrahma,73.05,24.0333,87.93,10.63,54,100
Provideniya,-173.3,64.3833,45.25,11.14,45,5
Chicama,-79.1469,-7.8447,64.94,10.58,77,65
Novobirilyussy,90.6661,56.9514,30.92,3.69,73,31
San Patricio,-97.5169,28.017,80.78,7.81,69,57
Jamestown,-79.2353,42.097,49.73,4.0,81,90
Saurimo,20.3916,-9.6608,62.69,5.48,42,100
Mana,-53.7767,5.6592,79.11,8.43,87,100
Baykit,96.37,61.67,36.45,6.29,96,100
South Kazakhstan Region,68.0,43.0,78.75,3.13,33,100
Sungai Penuh,101.3833,-2.0833,65.89,1.77,89,100
Manakara,48.0167,-22.1333,67.91,7.78,93,98
Balkhash,74.9804,46.844,66.61,17.78,41,52
Saint-Philippe,55.7679,-21.3585,67.89,4.7,81,16
Los Llanos de Aridane,-17.9182,28.6585,63.12,11.83,89,20
Urusha,122.9,54.05,43.99,3.58,84,74
San Cristobal,-72.225,7.7669,71.78,2.19,71,75
Flinders,150.8552,-34.5833,52.84,8.01,72,91
Port Hardy,-127.4199,50.6996,53.78,3.44,71,75
Hsinchu,120.9686,24.8036,78.62,1.01,93,100
Uíge,15.0613,-7.6087,69.37,3.76,62,34
Saint Anthony,-93.218,45.0205,64.56,3.0,37,1
La Ronge,-105.2842,55.1001,46.65,12.66,66,90
Victor Harbor,138.6167,-35.5667,46.08,8.16,70,0
Barrow,-156.7887,71.2906,30.22,12.66,80,90
Ribeira Grande,-28.7,38.5167,66.6,3.44,77,75
Ostrovnoy,39.5131,68.0531,35.13,16.04,79,100
Palmer,-72.3287,42.1584,46.56,4.0,79,90
Panama City,-79.5197,8.9936,77.29,5.75,91,75
Timrå,17.3257,62.487,46.08,0.0,76,3
Norman Wells,-126.8329,65.282,37.44,10.36,81,90
Warrnambool,142.4833,-38.3833,38.8,6.17,90,0
Jumla,82.1838,29.2747,58.01,1.79,86,100
Ketchikan,-131.6461,55.3422,54.07,9.22,58,75
Sonāmukhi,87.4167,23.3,82.0,8.52,87,23
Zyryanka,150.85,65.75,52.36,23.04,47,0
Jieshi,115.8257,22.8134,82.27,15.12,87,100
Bengkulu,102.2655,-3.8004,75.52,2.95,85,98
Pelym,61.9978,61.0108,56.88,5.21,97,98
Abalak,68.5944,58.1286,59.76,7.58,68,18
Vadsø,29.7487,70.0744,40.08,8.01,85,99
Nome,-165.4064,64.5011,51.87,12.66,28,1
Nelson Bay,152.15,-32.7167,51.8,19.28,93,97
Sobolevo,31.8996,54.4299,48.97,9.98,94,91
Sulangan,123.7228,11.1373,83.82,5.32,74,93
Khor,134.9464,47.8861,51.94,4.0,83,100
Amapá,-52.0,1.0,75.78,3.22,97,24
Río Gallegos,-69.2181,-51.6226,37.45,11.5,60,75
Maniitsoq,-52.9,65.4167,40.42,19.35,71,2
Sørland,12.6934,67.667,44.33,7.65,76,100
Hakkâri Province,44.1667,37.5833,53.74,4.99,45,0
Sabang,95.3214,5.8933,82.04,20.65,78,99
Lufilufi,-171.5986,-13.8745,85.78,13.67,77,37
Achacachi,-68.6833,-16.05,50.54,7.96,60,85
Kavieng,150.7967,-2.5744,82.02,16.49,81,98
Caceres,-6.3748,39.522,76.28,8.99,40,29
Orlik,99.825,52.5178,30.99,2.08,78,50
Chui,-53.4616,-33.6971,50.05,13.71,60,37
Port Augusta,137.7667,-32.5,41.7,4.32,58,0
Reyes,-67.3833,-14.3167,89.56,6.91,58,40
Bubaque,-15.8333,11.2833,79.03,19.95,68,6
Puerto Maldonado,-69.1833,-12.6,89.53,1.81,48,54
Olafsvik,-23.7142,64.8945,44.49,30.18,90,100
Shache,77.2406,38.4167,77.85,3.42,22,96
Trenggalek,111.7167,-8.05,75.11,1.54,95,99
Airai,125.4092,-8.9266,54.99,2.08,90,53
Arraial do Cabo,-42.0278,-22.9661,80.46,8.05,74,0
Savannah Bight,-85.85,16.45,91.45,17.94,76,10
Tank,70.3793,32.2217,95.59,6.67,17,6
Pirovskoye,92.2658,57.6267,30.04,5.59,79,58
Ürümqi,87.6005,43.801,67.15,4.68,46,0
Luganville,167.1667,-15.5333,75.36,5.32,74,100
Grindavik,-22.4338,63.8424,46.74,35.52,81,90
Kommunisticheskiy,64.4819,61.6789,56.32,6.93,97,100
Oddur,43.8894,4.1213,73.6,10.83,71,65
Langsa,97.9683,4.4683,76.03,2.01,95,99
Laredo,-99.5075,27.5064,86.41,9.22,56,75
Berlevåg,29.0864,70.8578,40.41,13.44,87,99
Bulgan,103.5347,48.8125,41.63,2.71,92,100
Chapais,-74.8492,49.7834,55.18,4.61,25,2
Mezen',44.24,65.8522,33.04,12.28,89,100
Ambilobe,49.05,-13.2,70.34,3.6,89,0
Korem,39.5228,12.5058,59.47,0.16,41,22
Bilibino,166.4372,68.0546,49.05,2.53,48,93
Maceió,-35.7353,-9.6658,81.84,8.23,69,20
Broome,-75.833,42.2506,46.92,3.0,81,90
Longyearbyen,15.6401,78.2186,33.64,8.05,75,75
Shishou,112.419,29.7226,64.36,7.23,97,66
Vitim,112.5578,59.4511,43.5,5.95,72,100
Salta,-65.4117,-24.7859,60.55,4.0,55,20
Hobyo,48.5268,5.3505,78.84,21.23,81,87
Avarua,-159.775,-21.2078,77.05,5.75,65,20
Salekhard,66.6019,66.53,38.37,8.16,73,5
Margate,1.3862,51.3813,52.27,5.99,78,1
Collie,116.15,-33.3667,51.98,3.78,98,84
Khuzdar,66.6434,27.7384,81.01,6.42,12,0
Fairbanks,-147.7164,64.8378,47.64,8.05,44,90
San Felipe,-68.7425,10.3399,78.8,5.91,82,100
Hualmay,-77.6139,-11.0964,67.19,8.39,82,60
Lyngseidet,20.2189,69.5763,42.48,6.17,80,96
Zhezkazgan,67.7144,47.8043,69.33,6.26,50,37
Kumasi,-1.6244,6.6885,74.98,3.74,90,47
Ratnagiri,73.3,16.9833,82.36,2.06,79,100
Ust'-Ishim,71.1665,57.6935,59.65,6.6,71,7
Vryburg,24.7284,-26.9566,50.61,8.03,37,71
Kysyl-Syr,122.7617,63.8986,56.68,2.21,57,85
Port Hedland,118.5667,-20.3167,69.85,5.75,68,96
Kewanee,-89.9248,41.2456,63.03,10.89,45,0
Granadilla de Abona,-16.576,28.1188,62.06,10.36,67,20
Blagodarnyy,43.4364,45.0978,62.02,12.35,84,88
Puerto Baquerizo Moreno,-89.6,-0.9,76.19,16.11,78,40
Brae,-1.353,60.3964,44.51,1.97,87,3
Paramonga,-77.8333,-10.6667,66.56,7.54,85,86
Todos Santos,-110.2167,23.45,93.92,6.76,47,99
Bama,13.6856,11.5221,90.07,6.93,18,23
Mahina,-149.489,-17.5065,83.97,13.98,61,20
Klaksvík,-6.589,62.2266,47.32,12.33,80,6
Nueve de Julio,-60.8831,-35.4444,50.72,6.46,58,12
Batagay-Alyta,130.4114,67.8006,40.87,13.27,63,31
Tabou,-7.3528,4.423,80.64,8.48,84,84
Tura,90.2201,25.5198,72.81,4.25,91,36
Nuuk,-51.7216,64.1835,43.41,12.66,81,1
Burnie,145.9167,-41.0667,36.95,3.78,80,26
Geraldton,114.6,-28.7667,63.01,16.82,77,40
Nuevo Progreso,-97.95,23.1667,83.73,8.01,64,9
Tayshet,98.0044,55.9342,29.68,4.61,84,86
Inta,60.1659,66.0317,39.92,4.29,67,100
Mayo,-76.5119,38.8876,52.07,15.99,91,90
Lagoa,-27.9833,39.05,63.54,7.31,79,33
Pedasí,-80.0333,7.5333,69.44,2.1,88,100
Nālūt,10.85,30.3333,92.1,9.15,10,97
Nishihara,127.7558,26.1842,69.08,15.28,94,75
Mahon,4.2658,39.8885,64.96,3.44,88,0
Kuala Terengganu,103.1408,5.3302,76.95,3.44,94,20
Clarence Town,151.7833,-32.5833,51.55,4.59,74,92
Inhambane,35.3833,-23.865,66.38,6.64,87,0
Mount Gambier,140.7667,-37.8333,35.51,5.75,100,5
Dudinka,86.1778,69.4058,10.13,3.27,98,39
Kitgum,32.8867,3.2783,68.29,2.95,89,64
Tapes,-51.3958,-30.6733,59.86,10.36,70,7
Beroroha,45.1667,-21.6667,62.67,2.04,70,0
Gazojak,61.4036,41.1875,89.01,11.16,16,0
Hong Kong,114.1577,22.2855,84.65,1.01,89,96
Tamworth,-1.6959,52.634,59.4,6.15,93,3
Muriwai Beach,174.45,-36.8167,50.59,8.48,97,63
Mar del Plata,-57.5575,-38.0023,48.49,7.0,54,40
Healesville,145.5167,-37.65,35.17,1.86,99,4
Constitución,-72.4167,-35.3333,56.57,11.88,68,100
Avera,-82.5271,33.194,84.24,15.43,27,79
Maxixe,35.3472,-23.8597,65.03,5.84,88,0
Marfino,37.3822,55.7028,51.87,13.51,86,75
Arrondissement de Mende,3.5,44.6667,49.15,4.72,97,100
Alofi,-169.9187,-19.0595,76.89,4.61,94,75
Bonavista,-53.1147,48.6499,50.0,13.0,82,6
Grand Gaube,57.6608,-20.0064,74.37,3.0,89,19
Ruhengeri,29.635,-1.4998,58.19,1.66,96,75
Ubari,12.7805,26.5921,92.39,3.42,10,0
Ugoofaaru,73.0,5.6667,82.92,20.04,75,77
Pringsewu,104.9744,-5.3582,73.27,2.51,96,100
Chacaltianguis,-95.8333,18.3333,100.54,7.67,34,71
Aykhal,111.5,66.0,51.49,5.01,62,36
Gombong,109.5142,-7.6072,75.11,1.57,94,100
Isangel,169.2667,-19.55,72.91,1.68,55,100
College,-147.8028,64.8569,47.57,12.66,44,75
Coyhaique,-72.0662,-45.5752,44.55,3.44,61,75
Saint-Pierre,55.4781,-21.3393,67.96,3.44,67,0
Jönköping,14.1562,57.7814,53.31,0.0,71,9
Bathsheba,-59.5167,13.2167,86.61,15.21,54,40
Kano,8.5167,12.0001,80.49,2.3,74,0
Burē,37.0667,10.7,63.41,4.0,36,42
Lukovetskiy,41.9211,64.2956,35.58,4.45,91,32
Buraidah,43.975,26.326,95.45,8.75,11,8
Cidreira,-50.2056,-30.1811,61.2,11.01,72,1
Cochrane,-114.4687,51.1834,62.22,9.84,28,40
Noumea,166.4572,-22.2763,71.01,11.43,99,83
Smidovich,133.8167,48.6,50.95,12.57,82,100
Mount Isa,139.5,-20.7333,55.17,8.05,38,1
Kormilovka,74.1028,55.0026,60.55,9.33,51,1
Bobo-Dioulasso,-4.2979,11.1771,90.05,1.14,58,0
Saint Paul Harbor,-152.4072,57.79,45.91,9.22,93,90
Sitka,-135.33,57.0531,55.29,16.11,58,75
Bandarbeyla,50.8122,9.4942,79.63,25.14,83,79
Kahului,-156.47,20.8947,81.91,5.75,64,20
Mouzourás,24.15,35.5333,66.2,5.75,94,20
Dubbo,148.6167,-32.25,35.73,11.5,87,0
Simdega,84.5167,22.6167,80.15,4.5,73,15
Kruisfontein,24.7314,-34.0033,53.89,12.8,89,47
Drumnadrochit,-4.4799,57.3344,52.03,3.36,98,50
Bambanglipuro,110.2833,-7.95,60.6,3.89,89,100
Hervey Bay,152.8535,-25.2986,54.01,3.0,71,98
Chanthaburi,102.1667,12.8333,71.02,2.53,95,70
Sayyan,44.3244,15.1718,66.2,0.67,29,96
Waingapu,120.2641,-9.6567,74.19,4.59,86,77
Praia,-23.5087,14.9215,73.94,17.27,68,20
Sembakung,117.25,3.8167,74.08,2.53,99,70
Erie,-78.6664,42.7667,56.77,5.99,49,99
Aklavik,-135.0107,68.2191,33.8,9.22,69,90
Hīt,42.8251,33.6416,85.93,8.39,12,0
Salalah,54.0924,17.0151,84.29,6.91,89,75
Araouane,-3.5265,18.9048,100.02,3.47,16,86
Vikersund,9.995,59.9659,57.81,3.11,65,5
Beringovskiy,179.3167,63.05,32.9,10.54,81,7
Nadym,72.5167,65.5333,52.7,14.79,88,100
Morro Bay,-120.8499,35.3658,65.98,7.0,65,17
Price,-110.8107,39.5994,78.26,18.41,15,1
Sur,59.5289,22.5667,87.1,11.34,55,27
Peniche,-9.3811,39.3558,59.77,18.07,84,11
Mayumba,10.6554,-3.432,76.93,6.11,91,41
Quatre Cocos,57.7625,-20.2078,74.08,5.28,83,43
Yangi Marg`ilon,71.7189,40.4272,77.72,11.5,27,52
Dingle,122.6711,10.9995,77.45,1.68,91,95
Adrar,-10.0711,20.5022,96.66,9.82,10,100
Hamilton,-84.5333,39.1834,54.64,3.0,76,90
Nemuro,145.575,43.3236,45.45,11.43,98,96
Iqaluit,-68.5145,63.7506,29.93,21.85,74,90
Güira de Melena,-82.5053,22.7906,90.12,6.15,59,80
Honningsvåg,25.9704,70.9821,41.22,23.53,88,100
San Borja,-66.85,-14.8167,81.1,2.24,70,100
Katobu,122.5276,-4.9408,74.16,3.29,92,59
Escanaba,-87.0646,45.7453,58.84,13.8,47,1
Bitkine,18.2138,11.9801,92.37,3.56,16,7
Tezu,96.1667,27.9167,75.09,3.85,77,98
Tchibanga,11.0333,-2.85,72.07,2.06,98,44
Waipawa,175.5153,-41.4122,47.17,2.89,90,100
Udachny,112.4,66.4167,52.66,5.97,63,6
Muisne,-80.0333,0.6,84.31,9.35,80,71
Nānākuli,-158.1547,21.3906,81.3,4.65,57,1
Vardø,31.1107,70.3705,39.02,10.18,85,71
Altay,88.1167,47.8667,55.31,3.85,47,0
Ekhabi,142.9671,53.5102,35.78,14.16,93,100
Mananara,49.7667,-16.1667,69.15,4.29,90,35
Putina,-69.4333,-15.4667,49.82,9.69,53,97
Puerto Escondido,-97.0667,15.85,88.18,8.84,60,23
Ixtapa,-105.2,20.7,83.43,17.27,70,1
Poum,164.0167,-20.2333,70.66,18.92,64,81
Primo Tapia,-116.9172,32.22,66.0,10.67,63,28
Mumford,-0.759,5.2618,80.87,7.18,84,100
Honiara,159.95,-9.4333,77.58,1.81,89,98
Great Yarmouth,1.7305,52.6083,50.36,8.39,91,3
Viedma,-62.9967,-40.8135,48.76,18.05,42,12
Mersing,103.8405,2.4312,76.91,5.75,94,98
Natal,-35.2094,-5.795,80.82,12.19,74,75
Chara,118.2631,56.9064,48.63,1.57,72,70
Saint-Joseph,55.6167,-21.3667,66.88,5.19,80,8
Havelock,-76.9013,34.8791,79.93,11.99,77,75
Tiznit Province,-9.5,29.5833,79.92,7.83,36,100
Ndélé,20.6473,8.4109,84.11,2.15,40,88
Elliot Lake,-82.6331,46.3834,60.89,1.21,22,0
Kobryn,24.3564,52.2138,50.38,12.44,92,100
Valera,-70.6036,9.3178,78.04,1.32,89,100
Itaparica,-38.6786,-12.8883,80.53,7.81,72,100
Hastings,0.5729,50.8552,52.61,14.52,91,1
Bānka,86.9167,24.8833,83.44,7.67,73,21
Necochea,-58.7368,-38.5473,47.03,19.06,55,55
Homer,-151.5483,59.6425,47.97,0.0,88,90
Monywa,95.1333,22.1167,87.85,11.56,56,90
Kamaishi,141.8833,39.2667,58.8,5.26,76,20
Jijiga,42.8,9.35,62.89,7.36,79,6
Forsytheganj,29.7333,52.6333,52.27,8.77,94,100
Okhotsk,143.3,59.3833,36.28,9.26,90,99
Banda Aceh,95.3222,5.5577,78.03,15.28,88,100
Wamba,8.6,8.9333,76.24,4.27,78,100
Berea,-81.8543,41.3662,53.46,7.0,64,75
Vidim,103.1106,56.4088,32.32,2.57,81,100
Moreira Sales,-53.0069,-24.0622,76.68,5.46,46,100
Am Timan,20.2827,11.0297,92.55,5.32,24,10
Toora-Khem,96.11,52.4675,32.85,3.02,85,75
Vancouver,-123.1193,49.2497,63.91,5.99,63,20
Ende,121.6623,-8.8432,74.44,1.97,86,96
Maragogi,-35.2225,-9.0122,76.64,7.18,75,18
Sarangani,125.4636,5.4033,83.77,13.13,76,100
Tateyama,139.8667,34.9833,65.32,5.66,82,100
Tombouctou,-3.0,20.0,97.12,12.1,9,1
Mehamn,27.8492,71.0357,40.87,17.22,93,99
Sept-Îles,-66.3821,50.2001,50.13,1.99,64,20
Hiriyūr,76.6192,13.9456,76.08,14.83,73,48
Portland,-122.6762,45.5234,74.62,1.01,45,20
San Policarpo,125.5072,12.1791,78.87,4.14,89,82
Dicabisagan,122.4157,17.0818,79.48,3.87,83,74
Cranbrook,-115.7688,49.4999,62.44,3.69,29,20
Skibbereen,-9.2667,51.55,53.4,1.57,89,7
Santiago del Estero,-64.2615,-27.7951,66.33,6.8,34,0
Östersund,14.6357,63.1792,52.25,10.36,58,3
Thinadhoo,72.9333,0.5333,83.61,20.38,73,60
Bachaquero,-71.1494,9.9694,82.63,3.6,72,100
Kidal,1.4078,18.4411,94.87,9.69,6,99
Tuy Hoa,109.3,13.0833,78.76,5.84,85,89
Santo Estêvão,-39.2514,-12.4303,73.58,7.45,68,100
Port Blair,92.75,11.6667,80.94,5.44,84,100
Portobelo,-79.65,9.55,78.69,6.35,81,61
Sibolga,98.7792,1.7427,76.59,3.4,90,85
Cayenne,-52.3333,4.9333,81.09,8.48,86,90
Yuancheng,107.7896,36.652,65.82,3.11,36,37
Kamenka,42.7678,51.3223,60.58,5.59,94,70
Gloucester,-2.2431,51.8657,58.98,4.88,86,46
Vostok,135.8833,46.4856,44.13,2.53,86,100
Riberalta,-66.1,-10.9833,91.6,2.17,55,40
Iskateley,53.1512,67.6803,32.5,11.99,73,97
Curicó,-71.2333,-34.9833,51.91,9.22,82,75
Tosya,34.0401,41.0155,55.56,4.41,86,100
Myingyan,95.3833,21.4667,85.3,13.0,62,100
Taltal,-70.4833,-25.4,66.43,4.03,70,24
Yinchuan,106.2731,38.4681,70.54,7.47,25,83
Naze,129.4833,28.3667,65.23,3.56,90,100
Pangody,74.4859,65.85,52.99,18.32,90,100
Cap Malheureux,57.6142,-19.9842,74.46,3.0,89,14
Kumbhrāj,77.05,24.3667,91.98,4.76,33,100
Lompoc,-120.4579,34.6391,62.04,17.27,74,90
Caibarién,-79.4669,22.5206,74.52,14.07,67,4
Suixi,116.7747,33.8907,69.87,6.91,85,64
North Platte,-100.7654,41.1239,56.32,1.01,84,90
Aksarka,67.7975,66.5606,39.49,10.76,75,5
Touros,-35.4608,-5.1989,81.5,14.67,77,6
Jacareacanga,-57.7528,-6.2222,86.31,1.77,57,30
Vila Franca do Campo,-25.4333,37.7167,64.81,5.39,82,52
Hurghada,33.8129,27.2574,86.04,6.91,19,0
Carbondale,-89.2168,37.7273,56.66,12.66,77,90
Uray,64.7758,60.1247,57.04,6.73,73,100
Taganak,118.3,6.0833,77.09,5.99,72,53
Kānt,79.8,27.8,79.66,3.96,65,51
San Antero,-75.7589,9.3741,82.65,6.96,77,100
Bonthe,-12.505,7.5264,82.08,5.26,82,10
Santa Rita do Sapucaí,-45.7033,-22.2522,66.9,2.98,80,99
Dinar,30.1656,38.065,60.76,2.26,71,4
Balezino,53.0106,57.9796,57.76,3.56,97,100
Codrington,141.9667,-38.2667,39.47,6.49,95,7
Malakal,31.6605,9.5334,87.19,5.59,39,1
Vanimo,141.3028,-2.6741,77.92,4.18,90,100
Wagga Wagga,147.3667,-35.1167,27.01,3.38,100,0
Mangai,19.5333,-4.05,75.69,0.51,68,79
Dunedin,170.5036,-45.8742,49.8,12.35,96,100
Yagodnoye,149.6667,62.55,41.76,5.82,63,66
Oranjemund,16.4333,-28.55,57.6,14.7,82,100
Bara,10.7288,10.3744,87.58,5.53,44,100
Perevoz,44.5446,55.5961,56.79,9.91,93,42
Urengoy,78.3667,65.9667,44.02,20.11,57,77
Prince George,-122.753,53.9166,61.92,1.99,43,1
Port Hawkesbury,-61.3485,45.6169,45.03,3.0,74,75
Acajutla,-89.8275,13.5928,98.94,6.73,63,40
Meadow Lake,-106.5436,34.8014,87.51,17.45,7,91
Konibodom,70.4426,40.2843,78.57,3.38,33,41
Husavik,-17.3389,66.0449,53.51,15.05,61,100
Pontianak,109.3333,-0.0333,73.38,3.02,100,90
La Orilla,-102.2333,17.9833,88.07,12.71,57,88
Ayorou,0.9174,14.7308,94.87,9.44,11,1
Chumikan,135.315,54.7183,36.3,8.16,92,100
Mimongo,11.6068,-1.6195,71.2,0.58,97,88
Wahpeton,-96.6059,46.2652,60.57,16.11,51,75
Kholtoson,103.3097,50.2981,36.63,3.58,99,100
Juegang,121.1855,32.3174,68.16,5.64,84,29
Garoowe,48.4845,8.4054,79.56,16.24,61,9
Obo,26.4869,5.3998,68.97,4.21,89,64
São Bento,-37.75,-6.2833,76.28,0.6,44,2
Saint-Leu,55.2833,-21.15,67.44,5.08,76,0
Morant Bay,-76.4093,17.8815,83.88,8.84,73,11
Sainte-Anne-des-Monts,-66.4924,49.124,48.07,2.44,61,33
San Juan,-68.5364,-31.5375,71.73,8.81,38,100
Jinchang,102.1739,38.4953,66.51,5.14,30,92
Bima,118.7167,-8.4667,73.49,2.95,95,30
Tautira,-149.15,-17.7333,84.22,13.09,72,99
Burley,-113.7928,42.5357,66.18,3.44,27,1
Ponta Delgada,-25.6667,37.7333,65.12,8.05,77,75
Phan Thiet,108.1,10.9333,78.17,6.02,90,79
Luau,22.2247,-10.7073,58.21,5.03,37,86
Whitehorse,-135.0538,60.7161,50.54,18.99,46,90
Kaabong,34.1492,3.4836,67.75,9.13,66,34
Acaraú,-40.12,-2.8856,80.2,13.62,80,73
Tuensang,94.8333,26.2833,68.59,2.19,97,64
Inírida,-67.9239,3.8653,82.06,2.19,89,73
San Francisco,-122.4194,37.7749,60.12,4.0,77,75
São João da Barra,-41.0511,-21.6403,84.29,14.99,84,21
Puerto Carreño,-67.4859,6.189,85.57,3.47,69,89
Flin Flon,-101.865,54.7682,49.84,14.74,87,90
Kloulklubed,134.2556,7.0419,79.3,16.51,83,100
Poya,165.15,-21.35,68.85,6.62,59,87
Havre-St-Pierre,-63.5986,50.2334,52.16,20.71,54,1
Porto Walter,-72.7439,-8.2686,90.59,2.91,45,27
Gobabis,18.9667,-22.45,59.45,8.16,30,12
Terenos,-54.8603,-20.4422,85.71,4.72,45,40
La Romana,-68.9728,18.4273,82.76,11.5,83,40
Webuye,34.7697,0.6075,65.61,4.41,92,74
Mandan,-100.8896,46.8267,63.16,5.01,61,40
Kampong Thom,104.8887,12.7111,79.41,1.66,85,95
Fort Nelson,-122.7002,58.8053,65.79,10.36,26,75
Haines Junction,-137.5108,60.7522,51.75,8.05,40,96
Mareeba,145.4333,-17.0,60.39,2.71,90,65
Mezhdurechensk,88.0603,53.6942,35.91,2.15,89,10
Belozërskoye,65.5842,55.8214,60.21,7.87,51,11
Moose Factory,-80.6094,51.2585,60.78,13.8,44,1
Pithora,82.5167,21.2667,87.57,4.9,41,61
San Isidro,-77.05,-12.1167,65.25,7.99,86,90
Key Largo,-80.4473,25.0865,83.95,11.21,58,1
Kiama,150.8667,-34.6833,53.01,5.99,69,97
Goundam,-3.6708,16.4145,99.09,6.24,16,64
Meulaboh,96.1285,4.1363,76.96,3.18,86,100
Kununurra,128.7333,-15.7667,57.18,3.44,72,100
Melfort,-104.6177,52.8667,66.33,20.71,20,85
Ampanihy,44.75,-24.7,63.46,4.21,79,0
Saskatoon,-106.6345,52.1168,67.87,15.01,32,75
Nago,127.9761,26.5881,69.85,13.56,93,100
Calabozo,-67.4293,8.9242,91.87,6.22,38,52
Calama,-68.9333,-22.4667,66.69,16.11,19,0
Rocha,-54.3333,-34.4833,47.46,12.46,60,6
Erzin,36.2,36.9559,70.0,1.34,88,32
Puerto Ayacucho,-67.6236,5.6639,84.07,1.52,75,80
Caraballeda,-66.8522,10.6112,84.27,10.42,65,66
Esim,-2.2405,4.8699,80.17,7.65,85,70
Alekseyevsk,108.3492,57.8406,36.46,3.0,87,100
Anantapur,77.6,14.6833,83.19,15.84,61,58
Vestmannaeyjar,-20.2734,63.4427,45.46,33.71,87,100
Belfast,-5.9333,54.5833,58.82,4.61,72,0
Asău,26.4,46.4333,54.05,2.44,97,98
Luang Prabang,102.1347,19.8856,74.57,1.9,95,83
Gorontalo,123.0595,0.5412,75.0,2.15,94,96
Bukama,25.85,-9.2,64.15,2.13,43,49
Huadian,126.7478,42.9633,47.93,3.13,84,56
Karatau,70.4667,43.1667,71.98,1.48,35,47
Dédougou,-3.4667,12.4667,92.91,5.97,29,19
Northam,-4.2167,51.0333,58.39,6.69,69,35
Lahat,103.5333,-3.8,72.03,2.28,97,99
Marabu,114.0089,4.4148,77.14,3.96,94,40
Progreso,-89.6667,21.2833,98.11,15.1,66,27
Bulancak,38.2291,40.9372,62.42,3.02,100,75
Bongor,15.3722,10.2806,93.43,1.72,24,90
Namatanai,152.4333,-3.6667,79.54,6.44,84,98
Yen Bai,104.8667,21.7,79.83,1.63,88,100
Kaduqli,29.7167,11.0167,93.09,5.03,30,89
Huangnihe,128.0239,43.5583,46.62,2.01,86,15
Francisco Beltrão,-53.055,-26.0811,64.87,7.9,91,57
Chanika,38.0167,-5.4167,66.79,2.42,84,100
Iztapa,-90.7075,13.9333,91.45,6.91,46,40
Ganzhou,115.4327,28.8184,65.68,1.32,83,99
Yining,114.5636,29.0361,62.71,1.36,90,88
Severo-Yeniseyskiy,93.0408,60.3725,30.27,7.76,96,100
Binzhou,118.0167,37.3667,58.39,6.8,83,47
Benicarló,0.4271,40.4165,76.14,11.63,66,11
Itoman,127.6694,26.1247,69.82,14.97,94,75
Lenti,16.5386,46.624,52.36,3.87,84,76
Nizhniy Kuranakh,125.4869,58.8353,51.06,2.59,68,65
Forio,13.8646,40.7342,67.08,6.06,71,100
Koutiala,-5.4642,12.3917,93.78,7.67,32,58
Batemans Bay,150.1833,-35.7167,50.92,7.52,77,54
Birao,22.7882,10.2849,89.17,3.65,24,40
Guía de Isora,-16.7795,28.2115,62.1,4.0,70,77
São José da Coroa Grande,-35.1478,-8.8978,76.89,7.63,75,21
Kargasok,80.8572,59.0556,39.94,7.87,65,36
Vao,167.4833,-22.6667,68.49,20.4,63,99
Atbasar,68.3333,51.8,60.75,10.65,40,25
Bafoulabé,-10.8321,13.8065,99.81,2.93,16,18
Hearst,-83.6665,49.6835,68.25,5.91,20,7
Avenal,-120.129,36.0041,83.48,1.54,22,16
Ancud,-73.8203,-41.8697,48.97,6.73,76,99
Sirte,16.5887,31.2089,71.51,9.86,80,5
Bukachacha,116.9167,52.9833,47.91,1.48,95,100
Chacabuco,-60.4739,-34.6417,51.8,6.49,53,40
Mayor Pablo Lagerenza,-60.7718,-19.9309,83.61,8.68,48,100
Rio Grande,-52.0986,-32.035,58.95,20.2,60,5
Hanyang,105.5126,32.1371,64.6,0.67,78,100
Atar,-13.0499,20.5169,96.64,8.61,13,82
Creston,-94.3614,41.0586,62.74,9.22,42,1
Pochutla,-96.4661,15.7432,90.82,8.19,50,73
Pauini,-66.9764,-7.7136,88.84,1.14,58,23
Nur-Sultan,71.446,51.1801,57.15,12.5,44,0
Ciudad Bolivar,-63.5497,8.1222,86.49,10.69,55,91
Taiyuan,112.5603,37.8694,62.46,3.44,55,0
Loreto,-101.9667,22.2667,87.08,7.09,16,50
Arni,79.2833,12.6667,89.31,4.03,48,89
Kuusamo,29.1833,65.9667,35.64,1.14,69,0
Tarbagatay,107.3602,51.4803,38.73,4.43,73,100
Nara,135.8049,34.6851,60.76,1.05,75,23
Biak,122.8766,-0.9131,76.01,5.75,85,75
Kozan,35.8157,37.4552,68.9,1.79,86,62
Onega,38.1404,63.9061,35.6,8.37,79,16
Bosaso,49.1816,11.2842,89.85,1.9,45,14
Almaznyy,40.045,48.0448,68.14,8.84,96,100
Sembabule,31.4567,-0.0772,63.73,4.21,87,31
Harper,-7.7169,4.375,80.53,8.93,84,98
Arenillas,-2.8462,41.3471,57.81,2.62,84,65
Piaçabuçu,-36.4344,-10.4056,76.37,7.67,78,67
Saldanha,17.9442,-33.0117,53.65,8.01,83,12
Maningrida,134.2667,-12.0667,68.22,8.16,91,66
Belmonte,-38.8828,-15.8631,79.3,4.85,81,100
La Macarena,-73.7849,2.1837,79.12,3.18,94,88
